[
	{
		"Name": "Sprowa",
		"Prefix": "",
		"DifficultyLevel": 0,
		"MainImageURL": "https://wiki.simrail.eu/stations/poland/relay/lcs-starzyny/sp_track_1.png",
		"AdditionalImage1URL": "",
		"AdditionalImage2URL": "",
		"DispatchedBy": [],
		"Latititude": 50.59304492206253,
		"Longitude": 19.88301571264459,
		"id": "Starzyny"
	},
	{
		"Name": "Biała Rawska",
		"Prefix": "BR",
		"DifficultyLevel": 0,
		"MainImageURL": "https://wiki.simrail.eu/stations/poland/electronical/lcs-strzalki/lcs_br_st-tracks-1.png",
		"AdditionalImage1URL": "",
		"AdditionalImage2URL": "",
		"DispatchedBy": [],
		"Latititude": 51.7944183,
		"Longitude": 20.4394425,
		"id": "Strzałki"
	},
	{
		"Name": "Pilichowice",
		"Prefix": "Pi",
		"DifficultyLevel": 0,
		"MainImageURL": "https://wiki.simrail.eu/stations/poland/electronical/pilichowice/pi-signals-1.png",
		"AdditionalImage1URL": "",
		"AdditionalImage2URL": "",
		"DispatchedBy": [],
		"Latititude": 51.2556656,
		"Longitude": 20.1223774,
		"id": "Olszamowice"
	},
	{
		"Name": "Józefinów",
		"Prefix": "",
		"DifficultyLevel": 0,
		"MainImageURL": "https://wiki.simrail.eu/stations/poland/electronical/lcs-pruszkow/jz_track_3.png",
		"AdditionalImage1URL": "https://wiki.simrail.eu/stations/poland/electronical/lcs-pruszkow/jz_track_2.png",
		"AdditionalImage2URL": "",
		"DispatchedBy": [],
		"Latititude": 52.18587897581022,
		"Longitude": 20.85313515843776,
		"id": "Pruszków"
	},
	{
		"Name": "Gniewięcin APO",
		"Prefix": "",
		"DifficultyLevel": 0,
		"MainImageURL": "https://wiki.simrail.eu/stations/poland/relay/kozlow/kz_track_1.png",
		"AdditionalImage1URL": "",
		"AdditionalImage2URL": "",
		"DispatchedBy": [],
		"Latititude": 50.540835,
		"Longitude": 20.044427,
		"id": "Kozłów"
	},
	{
		"Name": "Klimontów APO",
		"Prefix": "",
		"DifficultyLevel": 0,
		"MainImageURL": "https://wiki.simrail.eu/stations/poland/relay/kozlow/kz_track_1.png",
		"AdditionalImage1URL": "",
		"AdditionalImage2URL": "",
		"DispatchedBy": [],
		"Latititude": 50.509156,
		"Longitude": 20.024466,
		"id": "Kozłów"
	},
	{
		"Name": "Radziwiłłów Mazowiecki",
		"Prefix": "",
		"DifficultyLevel": 0,
		"MainImageURL": "https://wiki.simrail.eu/stations/poland/electronical/lcs-zyrardow/rm_platform_4.png",
		"AdditionalImage1URL": "",
		"AdditionalImage2URL": "",
		"DispatchedBy": [],
		"Latititude": 52.000331,
		"Longitude": 20.290474,
		"id": "Żyrardów"
	},
	{
		"Name": "Łódź Andrzejów",
		"Prefix": "",
		"DifficultyLevel": 0,
		"MainImageURL": "https://wiki.simrail.eu/stations/poland/electronical/galkowek/la_platform_1.png",
		"AdditionalImage1URL": "",
		"AdditionalImage2URL": "",
		"DispatchedBy": [],
		"Latititude": 51.741028,
		"Longitude": 19.617146,
		"id": "Gałkówek"
	}, 
	{
		"Name": "Łódź Marysin",
		"Prefix": "",
		"DifficultyLevel": 0,
		"MainImageURL": "https://wiki.simrail.eu/stations/poland/electronical/lodz-widzew/lw_track_6.png",
		"AdditionalImage1URL": "",
		"AdditionalImage2URL": "",
		"DispatchedBy": [],
		"Latititude": 51.800168,
		"Longitude": 19.486153,
		"id": "Łódź Widzew"
	},
		{
		"Name": "Słotwiny",
		"Prefix": "",
		"DifficultyLevel": 0,
		"MainImageURL": "https://wiki.simrail.eu/stations/poland/electronical/zakowice-poludniowe/zp_track_4.png",
		"AdditionalImage1URL": "",
		"AdditionalImage2URL": "",
		"DispatchedBy": [],
		"Latititude": 51.72631,
		"Longitude": 19.83242,
		"id": "Żakowice Południowe"
	}
]
